{
  "bbox": {
    "lon0": 138.35,
    "lon1": 139.1,
    "lat0": 35,
    "lat1": 35.6
  },
  "points": {
    "south": [
      {
        "key": "hikawa",
        "title": "日川时计店",
        "route": "南线",
        "left": "59.56%",
        "top": "19.71%"
      },
      {
        "key": "fujisan_sta",
        "title": "富士山站",
        "route": "南线",
        "left": "58.45%",
        "top": "21.32%"
      },
      {
        "key": "hirano",
        "title": "山中湖平野滨",
        "route": "南线",
        "left": "73.90%",
        "top": "26.75%"
      },
      {
        "key": "yume",
        "title": "富士山梦大桥",
        "route": "南线",
        "left": "46.13%",
        "top": "75.38%"
      },
      {
        "key": "tatemai",
        "title": "竪堀駅",
        "route": "南线",
        "left": "41.82%",
        "top": "73.87%"
      },
      {
        "key": "fujiwest",
        "title": "富士站西口商店街",
        "route": "南线",
        "left": "42.81%",
        "top": "76.21%"
      }
    ],
    "north": [
      {
        "key": "hirano",
        "title": "山中湖平野滨",
        "route": "北线",
        "left": "73.90%",
        "top": "26.75%"
      },
      {
        "key": "hikawa",
        "title": "日川时计店",
        "route": "北线",
        "left": "59.56%",
        "top": "19.71%"
      },
      {
        "key": "fujisan_sta",
        "title": "富士山站",
        "route": "北线",
        "left": "58.45%",
        "top": "21.32%"
      },
      {
        "key": "lawson",
        "title": "河口湖罗森",
        "route": "北线",
        "left": "54.46%",
        "top": "19.95%"
      },
      {
        "key": "nagasaki",
        "title": "河口湖长崎公园",
        "route": "北线",
        "left": "52.87%",
        "top": "16.71%"
      },
      {
        "key": "saiko",
        "title": "西湖畔 / 朝雾高原",
        "route": "北线",
        "left": "43.33%",
        "top": "22.47%"
      }
    ]
  },
  "geocoded": {
    "hikawa": {
      "title": "日川时计店",
      "lat": 35.49266456,
      "lon": 138.80407216,
      "display": "pinned"
    },
    "fujisan_sta": {
      "title": "富士山站",
      "lat": 35.4838601,
      "lon": 138.7951893,
      "display": "富士山駅, 御坂みち, 新西原二丁目, 松山二丁目, 富士吉田市, 山梨県, 403-0005, 日本"
    },
    "hirano": {
      "title": "山中湖平野滨",
      "lat": 35.4262349,
      "lon": 138.9037042,
      "display": "山中湖 平野, 国道413号, 山中湖村, 南都留郡, 山梨県, 401-5052, 日本"
    },
    "yume": {
      "title": "富士山梦大桥",
      "lat": 35.1522872,
      "lon": 138.6762721,
      "display": "Fujisan Yumeno Ohashi, 国道139号, 津田, 富士市, 静岡県, 417-0034, 日本"
    },
    "tatemai": {
      "title": "竪堀駅",
      "lat": 35.1683237,
      "lon": 138.6460032,
      "display": "竪堀, 東名高速道路, 長通, 岩松, 富士市, 静岡県, 419-0202, 日本"
    },
    "fujiwest": {
      "title": "富士站西口商店街",
      "lat": 35.1518045,
      "lon": 138.6518041,
      "display": "pinned"
    },
    "lawson": {
      "title": "河口湖罗森",
      "lat": 35.49855633,
      "lon": 138.7671373,
      "display": "pinned"
    },
    "nagasaki": {
      "title": "河口湖长崎公园",
      "lat": 35.5218038,
      "lon": 138.757477,
      "display": "長崎公園, 富士河口湖町, 南都留郡, 山梨県, 日本"
    },
    "saiko": {
      "title": "西湖畔 / 朝雾高原",
      "lat": 35.4985177,
      "lon": 138.6853744,
      "display": "西湖, 富士河口湖町, 南都留郡, 山梨県, 日本"
    }
  }
}